State,District,Lat,Lon
ANDAMAN & NICOBAR ISLANDS,NICOBAR,7.507,93.597
ANDAMAN & NICOBAR ISLANDS,NORTH & MIDDLE ANDAMAN,12.833,92.863
ANDAMAN & NICOBAR ISLANDS,SOUTH ANDAMAN,11.508,92.644
ANDHRA PRADESH,ANAKAPALLI,17.691,83.003
ANDHRA PRADESH,BAPATLA,15.904,80.467
ANDHRA PRADESH,DR B R AMBEDKAR KONASEEMA,16.605,82.018
ANDHRA PRADESH,EAST GODAVARI,17.27,81.896
ANDHRA PRADESH,ELURU,16.71,81.095
ANDHRA PRADESH,GUNTUR,16.293,80.079
ANDHRA PRADESH,KAKINADA,16.989,82.247
ANDHRA PRADESH,KRISHNA,16.556,80.798
ANDHRA PRADESH,NTR DISTRICT,16.514079,80.631795
ANDHRA PRADESH,PALNADU,16.577,79.738
ANDHRA PRADESH,PARVATHIPURAM MANYAM,18.783,83.426
ANDHRA PRADESH,PRAKASAM,15.616,79.516
ANDHRA PRADESH,SPSR NELLORE,14.442,79.987
ANDHRA PRADESH,SRI ALLURI SITHARAMARAJU DISTRICT,#N/A,#N/A
ANDHRA PRADESH,SRIKAKULAM,18.599,84.024
ANDHRA PRADESH,VISHAKHAPATNAM,17.725142,83.294196
ANDHRA PRADESH,VIZIANAGARAM,18.475,83.385
ANDHRA PRADESH,WEST GODAVARI,16.937,81.384
ARUNACHAL PRADESH,ANJAW,28.066,96.825
ARUNACHAL PRADESH,CHANGLANG,27.363,96.341
ARUNACHAL PRADESH,DIBANG VALLEY,28.7,95.88
ARUNACHAL PRADESH,EAST KAMENG,27.586,92.923
ARUNACHAL PRADESH,EAST SIANG,28.044,95.355
ARUNACHAL PRADESH,KURUNG KUMEY,28.014,93.202
ARUNACHAL PRADESH,LOHIT,27.906,96.276
ARUNACHAL PRADESH,LOWER DIBANG VALLEY,28.25,95.84
ARUNACHAL PRADESH,LOWER SUBANSIRI,27.562,93.787
ARUNACHAL PRADESH,PAPUMPARA,27.29,93.593
ARUNACHAL PRADESH,TAWANG,27.662,91.95
ARUNACHAL PRADESH,TIRAP,27.028,95.532
ARUNACHAL PRADESH,UPPER SIANG,28.834,94.915
ARUNACHAL PRADESH,UPPER SUBANSIRI,28.291,93.933
ARUNACHAL PRADESH,WEST KAMENG,27.298,92.39
ARUNACHAL PRADESH,WEST SIANG,28.159,94.625
ASSAM,BAJALI,26.47,91
ASSAM,BAKSA,26.661,91.353
ASSAM,BARPETA,26.34,91.005
ASSAM,BISWANATH,26.829,93.383
ASSAM,BONGAIGAON,26.36,90.62
ASSAM,CACHAR,24.813,92.855
ASSAM,CHARAIDEO,27.063,95.046
ASSAM,CHIRANG,26.66,90.599
ASSAM,DARRANG,26.448,92.029
ASSAM,DHEMAJI,27.59,94.775
ASSAM,DHUBRI,26.01,90.033
ASSAM,DIBRUGARH,27.367,95.053
ASSAM,DIMA HASAO,25.378,93.031
ASSAM,GOALPARA,26.052,90.605
ASSAM,GOLAGHAT,26.475,93.835
ASSAM,HAILAKANDI,24.498,92.588
ASSAM,HOJAI,25.978,92.98
ASSAM,JORHAT,26.711,94.264
ASSAM,KAMRUP METROPOLITAN,26.13,91.888
ASSAM,KAMRUP RURAL,26.1,91.415
ASSAM,KARBI ANGLONG,26.157,93.405
ASSAM,KOKRAJHAR,26.494,90.117
ASSAM,LAKHIMPUR,27.174,94.141
ASSAM,MAJULI,26.999,94.292
ASSAM,MORIGAON,26.282,92.284
ASSAM,NAGAON,26.362,92.754
ASSAM,NALBARI,26.371,91.382
ASSAM,SIBSAGAR,26.97,94.66
ASSAM,SONITPUR,26.757,92.699
ASSAM,SOUTH SALMARA,25.918,89.962
ASSAM,SRIBHUMI,24.868637,92.360548
ASSAM,TAMULPUR,26.69,91.1
ASSAM,TINSUKIA,27.58,95.62
ASSAM,UDALGURI,26.73,92.032
ASSAM,WEST KARBI ANGLONG,25.85,92.533
BIHAR,ARARIA,26.198,87.362
BIHAR,ARWAL,25.163,84.677
BIHAR,AURANGABAD,24.791,84.408
BIHAR,BANKA,24.854,86.838
BIHAR,BEGUSARAI,25.497,86.13
BIHAR,BHABUA,24.992,83.606
BIHAR,BHAGALPUR,25.27,87.083
BIHAR,BHOJPUR,25.474,84.54
BIHAR,BUXAR,25.487,84.094
BIHAR,DARBHANGA,26.085,86.055
BIHAR,EAST CHAMPARAN,26.618,84.922
BIHAR,GAYA,24.697,84.934
BIHAR,GOPALGANJ,26.444,84.374
BIHAR,JAHANABAD,25.155,85.017
BIHAR,JAMUI,24.785,86.293
BIHAR,KATIHAR,25.55,87.64
BIHAR,KHAGARIA,25.511,86.601
BIHAR,KISHANGANJ,26.296,87.939
BIHAR,LAKHISARAI,25.162,86.137
BIHAR,MADHEPURA,25.822,86.898
BIHAR,MADHUBANI,26.402,86.222
BIHAR,MUNGER,25.21,86.526
BIHAR,MUZAFFARPUR,26.152,85.329
BIHAR,NALANDA,25.219,85.448
BIHAR,NAWADA,24.811,85.59
BIHAR,PATNA,25.455,85.227
BIHAR,PURNEA,25.815,87.404
BIHAR,ROHTAS,24.98,84.026
BIHAR,SAHARSA,25.814,86.591
BIHAR,SAMASTIPUR,25.774,85.865
BIHAR,SARAN,25.904,84.826
BIHAR,SHEIKHPURA,25.126,85.839
BIHAR,SHEOHAR,26.498,85.301
BIHAR,SITAMARHI,26.585,85.552
BIHAR,SIWAN,26.162,84.386
BIHAR,SUPAUL,26.245,86.808
BIHAR,VAISHALI,25.768,85.367
BIHAR,WEST CHAMPARAN,27.081,84.338
CHANDIGARH,CHANDIGARH,30.729,76.781
CHHATTISGARH,BALOD,20.742,81.188
CHHATTISGARH,BALODA BAZAR,21.582,82.327
KARNATAKA,BENGALURU URBAN,12.952,77.594
CHHATTISGARH,BASTAR,19.082,81.868
CHHATTISGARH,BEMETARA,21.709,81.524
CHHATTISGARH,BIJAPUR,18.843,80.776
CHHATTISGARH,BILASPUR,22.406,82.073
CHHATTISGARH,DANTEWADA,18.864,81.378
CHHATTISGARH,DHAMTARI,20.555,81.809
CHHATTISGARH,DURG,21.22,81.383
CHHATTISGARH,GARIABAND,20.449,82.235
TAMILNADU,RANIPET,12.952,79.459
CHHATTISGARH,JANJGIR,21.928,82.734
CHHATTISGARH,JASHPUR,22.801,83.862
CHHATTISGARH,KABIRDHAM,22.093,81.222
CHHATTISGARH,KANKER,20.138,81.123
CHHATTISGARH,KHAIRAGARH CHH GANDAI,21.417937,80.981938
CHHATTISGARH,KONDAGAON,19.746,81.665
CHHATTISGARH,KORBA,22.534,82.609
CHHATTISGARH,GAURELA PENDRA MARWAHI,22.83,81.95
CHHATTISGARH,MAHASAMUND,21.208,82.608
CHHATTISGARH,MANENDRAGARH BHARATPUR,23.596607,82.058294
CHHATTISGARH,MOHALA MANPUR CHOWKI,20.85,80.75
CHHATTISGARH,MUNGELI,22.241,81.73
CHHATTISGARH,NARAYANPUR,19.57,81.086
CHHATTISGARH,RAIGARH,22.085,83.303
CHHATTISGARH,RAIPUR,21.286,81.82
CHHATTISGARH,RAJNANDGAON,21.04,80.82
CHHATTISGARH,SAKTI,22.03,82.96
CHHATTISGARH,SARANGARH BILAIGARH,21.59,83.08
CHHATTISGARH,SUKMA,18.256,81.347
CHHATTISGARH,SURAJPUR,23.402,82.883
CHHATTISGARH,SURGUJA,22.929,83.227
DADRA & NAGAR HAVELI AND DAMAN & DIU (UT),DADARA & NAGAR HAVELI,20.194,73.071
DADRA & NAGAR HAVELI AND DAMAN & DIU (UT),DAMAN,20.414,72.859
DADRA & NAGAR HAVELI AND DAMAN & DIU (UT),DIU,20.72,70.938
DELHI,CENTRAL DELHI,28.694,77.216
DELHI,EAST DELHI,28.62,77.296
DELHI,NEW DELHI,28.577,77.147
DELHI,NORTH DELHI,28.794,77.108
DELHI,NORTH EAST DELHI,28.719,77.257
DELHI,NORTH WEST DELHI,28.727,77.042
DELHI,SOUTH DELHI,28.483,77.191
DELHI,SOUTH EAST DELHI,28.543,77.274
DELHI,SOUTH WEST DELHI,28.576,76.967
DELHI,WEST DELHI,28.656,77.065
GOA,NORTH GOA,15.581,73.973
GOA,SOUTH GOA,15.222,74.107
GUJARAT,AHMEDABAD,22.785,72.246
GUJARAT,AMRELI,21.425,71.249
GUJARAT,ANAND,22.46,72.787
GUJARAT,ARAVALLI,23.468,73.328
GUJARAT,BANASKANTHA,24.287,72.026
GUJARAT,BHARUCH,21.787,72.933
GUJARAT,BHAVNAGAR,21.585,71.913
GUJARAT,BOTAD,22.117,71.699
GUJARAT,CHHOTA UDEPUR,22.219,73.873
GUJARAT,DAHOD,22.862,74.113
GUJARAT,DANGS,20.804,73.701
GUJARAT,DEVBHOOMI DWARKA,22.124,69.464
GUJARAT,GANDHINAGAR,23.255,72.695
GUJARAT,GIR SOMNATH,20.966,70.776
GUJARAT,JAMNAGAR,22.333,70.207
GUJARAT,JUNAGADH,21.372,70.412
GUJARAT,KHEDA,22.837,72.952
GUJARAT,KUTCH,23.646,69.908
GUJARAT,MAHISAGAR,23.188,73.647
GUJARAT,MEHSANA,23.611,72.466
GUJARAT,MORBI,22.83,70.917
GUJARAT,NARMADA,21.737,73.645
GUJARAT,NAVSARI,20.816,73.092
GUJARAT,PANCHMAHAL,22.72,73.626
GUJARAT,PATAN,23.77,71.758
GUJARAT,PORBANDAR,21.655,69.777
GUJARAT,RAJKOT,22.021,70.744
GUJARAT,SABARKANTHA,23.807,73.033
GUJARAT,SURAT,21.267,73.075
GUJARAT,SURENDRANAGAR,22.764,71.593
GUJARAT,TAPI,21.191,73.627
GUJARAT,VADODARA,22.248,73.242
GUJARAT,VALSAD,20.418,73.119
HARYANA,AMBALA,30.326,76.936
HARYANA,BHIWANI,28.778,75.89
HARYANA,CHARKHI DADRI,28.579,76.161
HARYANA,FARIDABAD,28.348,77.347
HARYANA,FATEHABAD,29.569,75.577
HARYANA,GURGAON,28.369,76.94
HARYANA,HISAR,29.212,75.822
HARYANA,JHAJJAR,28.605,76.652
HARYANA,JIND,29.435,76.306
HARYANA,KAITHAL,29.812,76.416
HARYANA,KARNAL,29.688,76.897
HARYANA,KURUKSHETRA,30.038,76.783
HARYANA,MAHENDRAGARH,28.171,76.138
HARYANA,NUH,27.985,77.049
HARYANA,PALWAL,28.06,77.332
HARYANA,PANCHKULA,30.681,76.976
HARYANA,PANIPAT,29.334,76.927
HARYANA,REWARI,28.243,76.537
HARYANA,ROHTAK,28.911,76.53
HARYANA,SIRSA,29.616,74.901
CHHATTISGARH,KORIYA,23.47,82.235
HARYANA,YAMUNA NAGAR,30.234,77.301
HIMACHAL PRADESH,BILASPUR,31.371,76.67
HIMACHAL PRADESH,CHAMBA,32.675,76.351
HIMACHAL PRADESH,HAMIRPUR,31.667,76.525
HIMACHAL PRADESH,KANGRA,32.108,76.316
HIMACHAL PRADESH,KINNAUR,31.599,78.405
HIMACHAL PRADESH,KULLU,31.903,77.399
HIMACHAL PRADESH,LAHAUL & SPITI,32.48,77.618
HIMACHAL PRADESH,MANDI,31.637,76.991
HIMACHAL PRADESH,SHIMLA,31.197,77.632
HIMACHAL PRADESH,SIRMAUR,30.667,77.431
HIMACHAL PRADESH,SOLAN,31.045,76.91
HIMACHAL PRADESH,UNA,31.579,76.21
JAMMU & KASHMIR,ANANTNAG,33.827,75.321
JAMMU & KASHMIR,BADGAM,33.925,74.64
JAMMU & KASHMIR,BANDIPORA,34.491,74.875
JAMMU & KASHMIR,BARAMULA,34.165,74.309
JAMMU & KASHMIR,DODA,33.09,75.707
JAMMU & KASHMIR,GANDERBAL,34.282,75.025
JAMMU & KASHMIR,JAMMU,32.798,74.749
JAMMU & KASHMIR,KATHUA,32.577,75.589
JAMMU & KASHMIR,KISTWAR,33.553,75.966
JAMMU & KASHMIR,KULGAM,33.603,74.843
JAMMU & KASHMIR,KUPWARA,34.523,74.204
JAMMU & KASHMIR,POONCH,33.803,74.014
JAMMU & KASHMIR,PULWAMA,33.94,75.017
JAMMU & KASHMIR,RAJOURI,33.273,74.38
JAMMU & KASHMIR,RAMBAN,33.323,75.195
JAMMU & KASHMIR,REASI,33.229,74.841
JAMMU & KASHMIR,SAMBA,32.578,75.094
JAMMU & KASHMIR,SHOPIAN,33.733,74.818
JAMMU & KASHMIR,SRINAGAR,34.116,74.927
JAMMU & KASHMIR,UDHAMPUR,32.894,75.303
JHARKHAND,BOKARO,23.695,85.996
JHARKHAND,CHATRA,24.173,84.887
JHARKHAND,DEOGHAR,24.329,86.739
JHARKHAND,DHANBAD,23.827,86.471
JHARKHAND,DUMKA,24.319,87.266
JHARKHAND,EAST SINGHBHUM,22.583,86.451
JHARKHAND,GARHWA,24.104,83.698
JHARKHAND,GIRIDIH,24.294,86.11
JHARKHAND,GODDA,24.859,87.308
JHARKHAND,GUMLA,23.103,84.532
JHARKHAND,HAZARIBAG,24.055,85.419
JHARKHAND,JAMTARA,23.976,86.907
JHARKHAND,KHUNTI,22.994,85.262
JHARKHAND,KODERMA,24.499,85.666
JHARKHAND,LATEHAR,23.719,84.442
JHARKHAND,LOHARDAGA,23.476,84.669
JHARKHAND,PAKUR,24.564,87.662
JHARKHAND,PALAMU,24.203,84.167
JHARKHAND,RAMGARH,23.635,85.563
JHARKHAND,RANCHI,23.329,85.373
JHARKHAND,SAHIBGANJ,25.01,87.677
JHARKHAND,SERAIKELA-KHARSAWAN,22.848,85.95
JHARKHAND,SIMDEGA,22.582,84.564
JHARKHAND,WEST SINGHBHUM,22.421,85.518
KARNATAKA,BAGALKOTE,16.221,75.626
KARNATAKA,BALLARI,15.11,76.533
KARNATAKA,BELAGAVI,16.121,74.824
KARNATAKA,BENGALURU RURAL,13.227,77.574
MADHYA PRADESH,BHOPAL,23.47,77.391
KARNATAKA,BIDAR,17.952,77.225
KARNATAKA,CHAMARAJANAGAR,11.958,77.098
KARNATAKA,CHIKABALLAPURA,13.578,77.835
KARNATAKA,CHIKKAMAGALURU,13.455,75.691
KARNATAKA,CHITRADURGA,14.169,76.515
KARNATAKA,DAKSHINA KANNADA,12.853,75.251
KARNATAKA,DAVANGERE,14.409,75.954
KARNATAKA,DHARWAD,15.39,75.152
KARNATAKA,GADAG,15.431,75.665
KARNATAKA,HASSAN,12.996,76.108
KARNATAKA,HAVERI,14.739,75.417
KARNATAKA,KALABURAGI,17.26,76.869
KARNATAKA,KODAGU,12.325,75.801
KARNATAKA,KOLAR,13.14,78.218
KARNATAKA,KOPPAL,15.563,76.222
KARNATAKA,MANDYA,12.611,76.797
KARNATAKA,MYSURU,12.211,76.44
KARNATAKA,RAICHUR,16.091,76.892
KARNATAKA,RAMANAGARA,12.679,77.335
KARNATAKA,SHIVAMOGGA,14.043,75.22
KARNATAKA,TUMAKURU,13.522,76.946
KARNATAKA,UDUPI,13.498,74.872
KARNATAKA,UTTARA KANNADA,14.792,74.62
KARNATAKA,VIJAYANAGARA,15.139,76.921
KARNATAKA,VIJAYAPURA,16.794,75.953
KARNATAKA,YADGIR,16.627,76.913
KERALA,ALAPUZHA,9.427,76.448
KERALA,ERNAKULAM,10.084,76.546
KERALA,IDUKKI,9.84,77.057
KERALA,KANNUR,12.001,75.524
KERALA,KASARGOD,12.462,75.152
KERALA,KOLLAM,8.962,76.873
KERALA,KOTTAYAM,9.637,76.651
KERALA,KOZHIKODE,11.485,75.834
KERALA,MALAPPURAM,11.134,76.155
KERALA,PALAKKAD,10.795,76.557
KERALA,PATHANAMTHITTA,9.285,76.927
KERALA,THIRUVANANTHAPURAM,8.609,77.013
KERALA,THRISSUR,10.472,76.315
KERALA,WYNAD,11.712,76.098
LADAKH,KARGIL,33.886,76.508
LADAKH,LADAKH (LEH),35.036,76.806
LAKSHADWEEP,LAKSHADWEEP,10.449,72.953
MADHYA PRADESH,AGAR-MALWA,23.815,76.089
MADHYA PRADESH,ALIRAJPUR,22.315,74.364
MADHYA PRADESH,ANUPPUR,23.057,81.682
MADHYA PRADESH,ASHOKNAGAR,24.609,77.875
MADHYA PRADESH,BALAGHAT,21.881,80.359
MADHYA PRADESH,BARWANI,21.788,75.021
MADHYA PRADESH,BETUL,21.879,77.871
MADHYA PRADESH,BHIND,26.422,78.721
CHHATTISGARH,BALRAMPUR,23.593,83.501
MADHYA PRADESH,BURHANPUR,21.37,76.369
MADHYA PRADESH,CHHATARPUR,24.798,79.666
MADHYA PRADESH,CHHINDWARA,22.122,78.854
MADHYA PRADESH,DAMOH,23.812,79.527
MADHYA PRADESH,DATIA,25.801,78.597
MADHYA PRADESH,DEWAS,22.744,76.457
MADHYA PRADESH,DHAR,22.498,75.104
MADHYA PRADESH,DINDORI,22.89,81.051
MADHYA PRADESH,GUNA,24.556,77.199
MADHYA PRADESH,GWALIOR,26.04,78.146
MADHYA PRADESH,HARDA,22.233,77.123
MADHYA PRADESH,INDORE,22.713,75.782
MADHYA PRADESH,JABALPUR,23.234,79.976
MADHYA PRADESH,JHABUA,22.892,74.672
UTTAR PRADESH,BALRAMPUR,27.484,82.375
MADHYA PRADESH,KHANDWA,21.935,76.568
MADHYA PRADESH,KHARGONE,21.919,75.771
MADHYA PRADESH,MAIHAR,24.265,80.76
MADHYA PRADESH,MANDLA,22.639,80.512
MADHYA PRADESH,MANDSAUR,24.204,75.405
MADHYA PRADESH,MAUGANJ,24.667,81.88
MADHYA PRADESH,MORENA,26.413,77.868
MADHYA PRADESH,NARMADAPURAM,22.745,77.736
MADHYA PRADESH,NARSINGHPUR,22.936,79.088
MADHYA PRADESH,NEEMUCH,24.592,75.142
MADHYA PRADESH,NIWARI,25.285,78.749
MADHYA PRADESH,PANDHURNA,21.6,78.52
MADHYA PRADESH,KATNI,23.753,80.403
MADHYA PRADESH,RAISEN,23.22,78.121
MADHYA PRADESH,RAJGARH,23.861,76.732
MADHYA PRADESH,RATLAM,23.502,75.089
MADHYA PRADESH,REWA,24.755,81.587
MADHYA PRADESH,SAGAR,23.85,78.76
MADHYA PRADESH,SATNA,24.531,80.831
MADHYA PRADESH,SEHORE,22.988,77.127
MADHYA PRADESH,SEONI,22.317,79.689
MADHYA PRADESH,SHAHDOL,23.629,81.474
MADHYA PRADESH,SHAJAPUR,23.366,76.575
MADHYA PRADESH,SHEOPUR,25.754,77.007
MADHYA PRADESH,SHIVPURI,25.366,77.805
MADHYA PRADESH,SIDHI,24.221,81.834
MADHYA PRADESH,SINGRAULI,24.215,82.419
MADHYA PRADESH,TIKAMGARH,24.883,79.016
MADHYA PRADESH,UJJAIN,23.331,75.669
MADHYA PRADESH,UMARIA,23.562,80.974
MADHYA PRADESH,VIDISHA,23.892,77.813
MAHARASHTRA,AHMEDNAGAR,19.205,74.675
MAHARASHTRA,AKOLA,20.748,77.055
MAHARASHTRA,AMRAOTI,21.187,77.57
MAHARASHTRA,BEED,18.946,75.838
MAHARASHTRA,BHANDARA,21.122,79.759
MAHARASHTRA,BULDHANA,20.511,76.407
MAHARASHTRA,CHANDRAPUR,20.118,79.44
MAHARASHTRA,CHHATRAPATI SAMBHAJINAGAR,20.029,75.281
MAHARASHTRA,DHARASHIV,18.188,76.038
MAHARASHTRA,DHULE,21.11,74.6
MAHARASHTRA,GADCHIROLI,19.788,80.241
MAHARASHTRA,GONDIA,21.159,80.212
MAHARASHTRA,HINGOLI,19.62,77.101
MAHARASHTRA,JALGAON,20.934,75.487
MAHARASHTRA,JALNA,19.808,75.981
MAHARASHTRA,KOLHAPUR,16.47,74.159
MAHARASHTRA,LATUR,18.374,76.76
MAHARASHTRA,MUMBAI CITY,18.961,72.852
MAHARASHTRA,MUMBAI SUBURBAN,19.132,72.885
MAHARASHTRA,NAGPUR,21.178,79.085
MAHARASHTRA,NANDED,19.112,77.618
MAHARASHTRA,NANDURBAR,21.55,74.216
MAHARASHTRA,NASHIK,20.26,74.071
MAHARASHTRA,PALGHAR,19.794,73.019
MAHARASHTRA,PARBHANI,19.271,76.678
MAHARASHTRA,PUNE,18.571,74.068
MAHARASHTRA,RAIGAD,18.52,73.218
MAHARASHTRA,RATNAGIRI,17.273,73.455
MAHARASHTRA,SANGLI,17.114,74.768
MAHARASHTRA,SATARA,17.67,74.172
MAHARASHTRA,SHOLAPUR,17.791,75.483
MAHARASHTRA,SINDHUDURG,16.133,73.739
MAHARASHTRA,THANE,19.361,73.321
MAHARASHTRA,WARDHA,20.797,78.586
MAHARASHTRA,WASHIM,20.234,77.217
MAHARASHTRA,YEOTMAL,20.083,78.161
MANIPUR,BISHNUPUR,24.538,93.799
MANIPUR,CHANDEL,24.14,94.014
MANIPUR,CHURACHANDPUR,24.28,93.603
MANIPUR,IMPHAL EAST,24.826,94.009
MANIPUR,IMPHAL WEST,24.772,93.868
MANIPUR,SENAPATI,25.398,94.127
MANIPUR,TAMENGLONG,25.047,93.556
MANIPUR,THOUBAL,24.621,94.012
MANIPUR,UKHRUL,25.23,94.427
MIZORAM,MAMIT,23.753,92.463
MEGHALAYA,EAST JAINTIA HILLS,25.258,92.469
MEGHALAYA,EAST KHASI HILLS,25.381,91.797
MEGHALAYA,NORTH GARO HILLS,25.856,90.665
MEGHALAYA,RI BHOI,25.871,91.886
MEGHALAYA,SOUTH GARO HILLS,25.302,90.582
MEGHALAYA,SOUTH WEST GARO HILLS,25.446,89.993
MEGHALAYA,SOUTH WEST KHASI HILLS,25.321,91.243
MEGHALAYA,WEST GARO HILLS,25.653,90.196
MEGHALAYA,WEST JAINTIA HILLS,25.483,92.285
MEGHALAYA,WEST KHASI HILLS,25.605,91.263
MIZORAM,AIZAWL,23.836,92.824
MIZORAM,CHAMPHAI,23.425,93.304
MIZORAM,KOLASIB,24.158,92.727
MIZORAM,LAWNGTLAI,22.434,92.769
MIZORAM,LUNGLEI,22.968,92.643
MADHYA PRADESH,PANNA,24.419,80.189
MIZORAM,SAIHA,22.291,93.001
MIZORAM,SERCHHIP,23.299,92.934
NAGALAND,DIMAPUR,25.776,93.795
NAGALAND,KIPHIRE,25.847,94.824
NAGALAND,KOHIMA,25.77,94.11
NAGALAND,LONGLENG,26.559,94.798
NAGALAND,MOKOKCHUNG,26.472,94.529
NAGALAND,MON,26.684,95.018
NAGALAND,PEREN,25.493,93.615
NAGALAND,PHEK,25.649,94.532
NAGALAND,TUENSANG,26.177,94.887
NAGALAND,WOKHA,26.196,94.198
NAGALAND,ZUNHEBOTO,26.003,94.486
ODISHA,ANGUL,20.987,84.906
ODISHA,BALANGIR,20.589,83.172
ODISHA,BALASORE,21.492,86.914
ODISHA,BARGARH,21.219,83.349
ODISHA,BHADRAK,20.983,86.625
ODISHA,BOUDH,20.644,84.173
ODISHA,CUTTACK,20.453,85.697
ODISHA,DEOGARH,21.537,84.733
ODISHA,DHENKANAL,20.827,85.524
ODISHA,GAJAPATI,19.186,84.161
ODISHA,GANJAM,19.625,84.673
ODISHA,JAGATSINGHPUR,20.219,86.336
ODISHA,JAJPUR,20.856,86.149
ODISHA,JHARSUGUDA,21.806,83.948
ODISHA,KALAHANDI,19.868,83.108
ODISHA,KANDHAMAL,20.128,84.046
ODISHA,KENDRAPARA,20.553,86.612
ODISHA,KEONJHARGARH,21.538,85.704
ODISHA,KHURDA,20.091,85.515
ODISHA,KORAPUT,18.814,82.718
ODISHA,MALKANGIRI,18.259,81.95
ODISHA,MAYURBHANJ,21.896,86.409
ODISHA,NAWAPARA,20.465,82.577
ODISHA,NAWARANGPUR,19.225724,82.549722
ODISHA,NAYAGARH,20.213,84.998
ODISHA,PURI,19.879,85.726
ODISHA,RAYAGADA,19.364,83.512
ODISHA,SAMBALPUR,21.452,84.274
ODISHA,SONEPUR,20.84622,83.896885
ODISHA,SUNDARGARH,22.08,84.559
PUDUCHERRY (UT),KARAIKAL,10.95,79.803
PUDUCHERRY (UT),MAHE,11.726,75.54
PUDUCHERRY (UT),PUDUCHERRY,11.911,79.734
PUDUCHERRY (UT),YANAM,16.722,82.257
PUNJAB,AMRITSAR,31.706,74.899
PUNJAB,BARNALA,30.388,75.499
PUNJAB,BHATINDA,30.184,75.039
PUNJAB,FARIDKOT,30.613,74.779
PUNJAB,FATEHGARH SAHIB,30.642,76.376
PUNJAB,FAZILKA,30.278,74.165
PUNJAB,FEROZEPUR,30.914,74.704
PUNJAB,GURDASPUR,31.917,75.291
PUNJAB,HOSHIARPUR,31.625,75.858
PUNJAB,JALANDHAR,31.213,75.566
PUNJAB,KAPURTHALA,31.354,75.4
PUNJAB,LUDHIANA,30.805,75.833
PUNJAB,MANSA,29.909,75.437
PUNJAB,MOGA,30.763,75.172
PUNJAB,MUKTSAR,30.3,74.538
PUNJAB,PATHANKOT,32.297,75.616
PUNJAB,PATIALA,30.283,76.351
PUNJAB,RUPNAGAR,31.062,76.488
PUNJAB,SANGRUR,30.211,75.869
PUNJAB,SAS NAGAR (MOHALI),30.682,76.739
PUNJAB,SBS NAGAR,31.11,76.154
PUNJAB,TARN TARAN,31.337,74.841
RAJASTHAN,AJMER,26.233,74.772
RAJASTHAN,ALWAR,27.591,76.601
RAJASTHAN,BANSWARA,23.478,74.365
RAJASTHAN,BARAN,24.995,76.748
RAJASTHAN,BARMER,25.735,71.475
RAJASTHAN,BHARATPUR,27.248,77.276
RAJASTHAN,BHILWARA,25.481,74.727
RAJASTHAN,BIKANER,28.178,73.174
RAJASTHAN,BUNDI,25.488,75.792
RAJASTHAN,CHITTORGARH,24.822,74.774
RAJASTHAN,CHURU,28.345,74.696
RAJASTHAN,DAUSA,26.858,76.51
RAJASTHAN,UDAIPUR,24.419,73.689
RAJASTHAN,DUNGARPUR,23.731,73.854
RAJASTHAN,HANUMANGARH,29.266,74.561
RAJASTHAN,JAIPUR,26.977,75.719
RAJASTHAN,JAISALMER,27.075,70.901
RAJASTHAN,JALORE,25.099,72.212
RAJASTHAN,JHALAWAR,24.336,76.194
RAJASTHAN,JHUNJHUNU,28.092,75.55
RAJASTHAN,JODHPUR,26.748,72.785
RAJASTHAN,KARAULI,26.523,76.958
RAJASTHAN,KOTA,25.109,76.104
RAJASTHAN,NAGAUR,27.066,74.175
RAJASTHAN,PALI,25.707,73.519
RAJASTHAN,PRATAPGARH,24.03,74.651
RAJASTHAN,RAJSAMAND,25.228,73.891
RAJASTHAN,SAWAI MADHOPUR,26.218,76.461
RAJASTHAN,SIKAR,27.634,75.288
RAJASTHAN,SIROHI,24.762,72.777
RAJASTHAN,SRI GANGANAGAR,29.397,73.571
RAJASTHAN,TONK,26.148,75.666
UTTAR PRADESH,CHANDAULI,25.142,83.258
SIKKIM,GANGTOK,27.292,88.671
SIKKIM,GYALSHING,27.349,88.175
SIKKIM,MANGAN,27.744,88.528
SIKKIM,NAMCHI,27.287,88.383
SIKKIM,Pakyong,27.23,88.6
SIKKIM,Soreng,27.17,88.25
TAMILNADU,ARIYALUR,11.162,79.242
TAMILNADU,CHENGALPATTU,12.58,80
TAMILNADU,CHENNAI,13.063,80.232
TAMILNADU,COIMBATORE,10.878,76.976
TAMILNADU,CUDDALORE,11.536,79.45
TAMILNADU,DHARMAPURI,12.101,78.193
TAMILNADU,DINDIGUL,10.392,77.82
TAMILNADU,ERODE,11.518,77.413
TAMILNADU,KALLAKURICHI,11.798,79.011
TAMILNADU,KANCHEEPURAM,12.826,79.828
TAMILNADU,KANYAKUMARI,8.307,77.36
TAMILNADU,KARUR,10.844,78.135
TAMILNADU,KRISHNAGIRI,12.491,78.031
TAMILNADU,MADURAI,9.923,78.005
TAMILNADU,MAYILADUTHURAI,11.103,79.655
TAMILNADU,NAGAPATTINAM,10.809,79.729
TAMILNADU,NAMAKKAL,11.319,78.136
TAMILNADU,NILGIRIS,11.456,76.64
TAMILNADU,PERAMBALUR,11.275,78.89
TAMILNADU,PUDUKKOTTAI,10.36,78.879
TAMILNADU,RAMANATHAPURAM,9.449,78.691
WEST BENGAL,MALDAH,25.142,88.089
TAMILNADU,SALEM,11.678,78.223
TAMILNADU,SIVAGANGA,9.919,78.591
TAMILNADU,TENKASI,9.087,77.46
TAMILNADU,THANJAVUR,10.671,79.241
TAMILNADU,THENI,9.892,77.438
TAMILNADU,THIRUCHIRAPALLI,10.891,78.57
TAMILNADU,THIRUVALLUR,13.244,79.933
TAMILNADU,THOOTHUKUDI,8.891,78.004
TAMILNADU,TIRUNELVELI,8.575,77.604
TAMILNADU,TIRUPATTUR,12.585,78.644
TAMILNADU,TIRUPPUR,10.839,77.407
TAMILNADU,TIRUVANNAMALAI,12.432,79.166
TAMILNADU,TIRUVARUR,10.703,79.529
TAMILNADU,VELLORE,12.901,78.954
TAMILNADU,VILLUPURAM,12.123,79.527
TAMILNADU,VIRUDHUNAGAR,9.492,77.906
TELANGANA,ADILABAD,19.52,78.566
TELANGANA,ANANTAPURAMU,14.6819,77.6006
TELANGANA,ANNAMAYYA DISTRICT,14.47,78.82
TELANGANA,B. KOTHAGUDEM,17.688,80.71
TELANGANA,CHITTOOR,13.465,79.006
TELANGANA,HANUMAKONDA,18.005,79.77
TELANGANA,HYDERABAD,17.395,78.47
TELANGANA,J. BHUPALPALLY,18.502,79.925
TELANGANA,JAGTIAL,18.833,78.875
TELANGANA,JANGAON,17.735,79.274
TELANGANA,JOGULAMBA GADWAL,16.072,77.781
TELANGANA,KAMAREDDY,18.325,78.062
TELANGANA,KARIMNAGAR,18.379,79.235
TELANGANA,KHAMMAM,17.2,80.361
TELANGANA,KUMARAM BHEEM,19.359,79.417
TELANGANA,KURNOOL,15.532,77.999
TELANGANA,M. MALKAJGIRI,17.544,78.558
TELANGANA,MAHABUBABAD,17.668,79.984
TELANGANA,MAHABUBNAGAR,16.759,77.99
TELANGANA,MANCHERIAL,18.996,79.514
TELANGANA,MEDAK,17.955,78.26
TELANGANA,MULUGU,18.289,80.337
TELANGANA,NAGARKURNOOL,16.388,78.588
TELANGANA,NALGONDA,16.877,79.193
TELANGANA,NANDYAL,15.478,78.483
TELANGANA,NARAYANPET,16.643,77.58
TELANGANA,NIRMAL,19.113,78.315
TELANGANA,NIZAMABAD,18.702,78.211
TELANGANA,PEDDAPALLE,18.621,79.452
TELANGANA,RAJANNA SIRCILLA,18.416,78.761
TELANGANA,RANGAREDDY,17.131,78.413
TELANGANA,SANGAREDDY,17.784,77.875
TELANGANA,SIDDIPET,18.01,78.849
TELANGANA,SRI SATHYASAI DISTRICT,14.158081,77.826801
TELANGANA,SURYAPET,17.081,79.754
TELANGANA,TIRUPATI,13.6288,79.4192
TELANGANA,VIKARABAD,17.254,77.746
TELANGANA,WANAPARTHY,16.294,78.038
TELANGANA,WARANGAL,17.978,79.594
TELANGANA,Y. BHUVANAGIRI,17.452,78.981
TELANGANA,YSR DISTRICT,14.467,78.824
TRIPURA,DHALAI,23.839,91.92
TRIPURA,GOMATI,23.53,91.619
TRIPURA,KHOWAI,23.947,91.655
TRIPURA,NORTH TRIPURA,24.095,92.209
TRIPURA,SIPAHIJALA,23.587,91.33
TRIPURA,SOUTH TRIPURA,23.192,91.588
TRIPURA,UNAKOTI,24.193,92.04
TRIPURA,WEST TRIPURA,23.888,91.397
UTTAR PRADESH,AGRA,27.036,78.076
UTTAR PRADESH,ALIGARH,27.926,78.065
UTTAR PRADESH,AMBEDKAR NAGAR,26.419,82.666
UTTAR PRADESH,AMETHI,26.288,81.64
UTTAR PRADESH,AMROHA,28.813,78.332
MEGHALAYA,EAST GARO HILLS,25.624,90.631
UTTAR PRADESH,GHAZIPUR,25.624,83.556
UTTAR PRADESH,AZAMGARH,26.046,83.067
UTTAR PRADESH,BADAUN,28.078,79.042
UTTAR PRADESH,AURAIYA,26.658,79.479
UTTAR PRADESH,BAHRAICH,27.698,81.493
UTTAR PRADESH,BALLIA,25.876,84.103
UTTAR PRADESH,AYODHYA,26.658,81.997
UTTAR PRADESH,BANDA,25.471,80.557
UTTAR PRADESH,BARABANKI,26.939,81.332
UTTAR PRADESH,BAREILLY,28.458,79.431
UTTAR PRADESH,BASTI,26.82,82.626
UTTAR PRADESH,BHADOHI,25.348,82.464
UTTAR PRADESH,BIJNOR,29.386,78.389
UTTAR PRADESH,BULANDSHAHAR,28.363,78.015
RAJASTHAN,DHOLPUR,26.681,77.702
UTTAR PRADESH,CHITRAKOOT,25.206,81.078
UTTAR PRADESH,DEORIA,26.425,83.835
UTTAR PRADESH,ETAH,27.516,78.717
UTTAR PRADESH,ETAWAH,26.764,79.095
UTTAR PRADESH,FARRUKHABAD,27.431,79.459
UTTAR PRADESH,FATEHPUR,25.875,80.808
UTTAR PRADESH,FIROZABAD,27.187,78.526
UTTAR PRADESH,GAUTAM BUDDHA NAGAR,28.394,77.556
UTTAR PRADESH,GHAZIABAD,28.768,77.476
WEST BENGAL,JALPAIGURI,26.681,88.761
UTTAR PRADESH,GONDA,27.083,82.025
UTTAR PRADESH,GORAKHPUR,26.656,83.359
UTTAR PRADESH,HAMIRPUR,25.751,79.865
UTTAR PRADESH,HAPUR,28.722,77.893
UTTAR PRADESH,HARDOI,27.33,80.162
UTTAR PRADESH,HATHRAS,27.582,78.164
UTTAR PRADESH,JALAUN,26.091,79.386
UTTAR PRADESH,JAUNPUR,25.746,82.575
UTTAR PRADESH,JHANSI,25.508,78.951
UTTAR PRADESH,KANNAUJ,27.014,79.689
UTTAR PRADESH,KANPUR CITY,26.391,80.208
UTTAR PRADESH,KANPUR DEHAT,26.44,79.853
UTTAR PRADESH,KASGANJ,27.773,78.846
UTTAR PRADESH,KAUSHAMBI,25.498,81.415
UTTAR PRADESH,KHERI,28.121,80.667
UTTAR PRADESH,KUSHI NAGAR,26.863,83.934
UTTAR PRADESH,LALITPUR,24.653,78.562
UTTAR PRADESH,LUCKNOW,26.842,80.906
UTTAR PRADESH,MAHARAJGANJ,27.201,83.531
UTTAR PRADESH,MAHOBA,25.363,79.726
UTTAR PRADESH,MAINPURI,27.182,79.052
UTTAR PRADESH,MATHURA,27.597,77.626
UTTAR PRADESH,MAU,26.047,83.562
UTTAR PRADESH,MEERUT,29.036,77.783
UTTAR PRADESH,MIRZAPUR,24.987,82.607
UTTAR PRADESH,MORADABAD,28.899,78.788
UTTAR PRADESH,MUZAFFARNAGAR,29.416,77.725
UTTAR PRADESH,PILIBHIT,28.531,79.995
UTTAR PRADESH,PRATAPGARH,25.873,81.829
UTTAR PRADESH,PRAYAGRAJ,25.304,81.96
UTTAR PRADESH,RAE BAREILLY,26.226,81.135
UTTAR PRADESH,RAMPUR,28.81,79.115
UTTAR PRADESH,SAHARANPUR,29.951,77.547
UTTAR PRADESH,SAMBHAL,28.455,78.552
UTTAR PRADESH,SANT KABIR NAGAR,26.776,83.027
UTTAR PRADESH,SHAHJAHANPUR,27.951,79.822
UTTAR PRADESH,SHAMLI,29.5,77.282
UTTAR PRADESH,SHRAWASTI,27.718,81.903
UTTAR PRADESH,SIDDHARTH NAGAR,27.27,82.873
UTTAR PRADESH,SITAPUR,27.517,80.852
UTTAR PRADESH,SONBHADRA,24.408,83.051
UTTAR PRADESH,SULTANPUR,26.243,82.225
UTTAR PRADESH,UNNAO,26.609,80.561
UTTAR PRADESH,VARANASI,25.388,82.914
UTTARAKHAND,ALMORA,29.691,79.504
UTTARAKHAND,BAGESHWAR,29.996,79.859
UTTARAKHAND,CHAMOLI,30.494,79.577
UTTARAKHAND,CHAMPAWAT,29.281,80.069
UTTARAKHAND,DEHRADUN,30.472,77.968
UTTARAKHAND,GARHWAL PAURI,29.88,78.764
UTTARAKHAND,GARHWAL TEHRI,30.437,78.536
UTTARAKHAND,HARDWAR,29.881,77.996
UTTARAKHAND,NAINITAL,29.317,79.463
UTTARAKHAND,PITHORAGARH,30.113,80.345
UTTARAKHAND,RUDRAPRAYAG,30.507,79.052
UTTARAKHAND,UDHAM SINGH NAGAR,29.042,79.471
UTTARAKHAND,UTTARKASHI,30.973,78.607
WEST BENGAL,ALIPURDUAR,26.631,89.457
WEST BENGAL,BANKURA,23.139,87.136
WEST BENGAL,BIRBHUM,23.955,87.663
WEST BENGAL,COOCH BEHAR,26.292,89.346
WEST BENGAL,DARJILING,26.853,88.263
WEST BENGAL,EAST MIDNAPORE,22.032,87.772
WEST BENGAL,HOOGHLY,22.884,88.072
WEST BENGAL,HOWRAH,22.524,88.064
HARYANA,SONEPAT,29.057,76.875
WEST BENGAL,JHARGRAM,22.363,86.956
WEST BENGAL,KALIMPONG,27.033,88.629
WEST BENGAL,KOLKATA,22.559,88.344
UTTAR PRADESH,BAGHPAT,29.057,77.308
WEST BENGAL,MURSHIDABAD,24.171,88.229
WEST BENGAL,NADIA,23.479,88.517
WEST BENGAL,NORTH 24 PARGANAS,22.727,88.731
WEST BENGAL,NORTH DINAJPUR,25.889,87.998
WEST BENGAL,PASCHIM BARDHAMAN,23.661,87.16
WEST BENGAL,PURBA BARDHAMAN,23.36,87.947
WEST BENGAL,PURULIA,23.277,86.421
WEST BENGAL,SOUTH 24 PARGANAS,22.063,88.535
WEST BENGAL,SOUTH DINAJPUR,25.367,88.575
WEST BENGAL,WEST MIDNAPORE,22.439,87.417
